,City,Cloudiness,Country,Date,Humidity,Lat,Lng,Max Temp,Wind Speed
0,upernavik,68.0,GL,1538146201,100.0,72.79,-56.15,33.13,10.22
1,bluff,0.0,AU,1538146202,69.0,-23.58,149.07,66.52,9.89
2,urzhum,88.0,RU,1538146203,88.0,57.11,50.0,44.47,13.24
3,butaritari,48.0,KI,1538146205,100.0,3.07,172.79,85.15,8.99
4,trelew,0.0,AR,1538146206,65.0,-43.25,-65.31,60.94,18.84
5,lorengau,44.0,PG,1538146207,100.0,-2.02,147.27,82.63,10.0
6,ossora,0.0,RU,1538146208,100.0,59.24,163.07,35.56,3.4
7,rikitea,0.0,PF,1538146209,100.0,-23.12,-134.97,71.74,5.41
8,sola,75.0,FI,1538144400,60.0,62.78,29.36,41.0,12.75
9,minot,0.0,US,1538146212,66.0,48.23,-101.3,32.95,11.45
10,hobart,40.0,AU,1538143200,80.0,-42.88,147.33,42.8,8.05
11,,,,,,,,,
12,port alfred,0.0,ZA,1538146215,71.0,-33.59,26.89,67.51,22.08
13,pagudpud,64.0,PH,1538146216,94.0,18.56,120.79,81.55,14.92
14,castro,92.0,CL,1538146218,99.0,-42.48,-73.76,50.86,9.78
15,aseri,88.0,EE,1538146219,84.0,59.45,26.87,47.89,13.47
16,ancud,92.0,CL,1538146220,99.0,-41.87,-73.83,51.04,8.99
17,eyl,36.0,SO,1538146221,70.0,7.98,49.82,82.45,18.28
18,cape town,40.0,ZA,1538143200,51.0,-33.93,18.42,62.6,12.75
19,pitiquito,0.0,MX,1538146224,43.0,30.68,-112.05,76.78,4.29
20,erzin,0.0,TR,1538144400,48.0,36.95,36.2,86.0,11.41
21,,,,,,,,,
22,goderich,56.0,CA,1538146227,88.0,43.74,-81.71,60.04,18.5
23,hermanus,8.0,ZA,1538146228,52.0,-34.42,19.24,59.59,11.01
24,neiafu,75.0,TO,1538143200,78.0,-18.65,-173.98,75.2,11.41
25,porto torres,0.0,IT,1538144400,60.0,40.84,8.4,75.2,9.17
26,zhigansk,44.0,RU,1538146232,100.0,66.77,123.37,34.39,2.62
27,yellowknife,90.0,CA,1538145720,93.0,62.45,-114.38,32.0,11.41
28,hofn,92.0,IS,1538146234,97.0,64.25,-15.21,46.81,35.39
29,albany,90.0,US,1538143980,86.0,42.65,-73.75,53.96,4.7
30,punta arenas,0.0,CL,1538143200,65.0,-53.16,-70.91,44.6,4.7
31,englewood,90.0,US,1538145360,75.0,39.65,-104.99,46.58,4.7
32,toora-khem,12.0,RU,1538146239,91.0,52.47,96.11,37.36,2.17
33,mataura,64.0,NZ,1538146240,64.0,-46.19,168.86,46.72,14.25
34,broken hill,76.0,AU,1538146241,58.0,-31.97,141.45,52.57,13.47
35,cabo san lucas,75.0,MX,1538142300,83.0,22.89,-109.91,77.0,3.06
36,ushuaia,75.0,AR,1538143200,36.0,-54.81,-68.31,48.2,11.41
37,rio gallegos,0.0,AR,1538143200,49.0,-51.62,-69.22,48.2,4.7
38,cidreira,48.0,BR,1538146246,95.0,-30.17,-50.22,69.58,16.82
39,nabire,88.0,ID,1538146247,95.0,-3.36,135.5,69.13,2.17
40,port elizabeth,90.0,US,1538142960,93.0,39.31,-74.98,66.02,11.41
41,rosetta,0.0,EG,1538143200,52.0,31.4,30.42,89.6,6.93
42,san cristobal,20.0,EC,1538143200,62.0,-0.39,-78.55,57.2,12.75
43,busselton,32.0,AU,1538146252,100.0,-33.64,115.35,60.94,19.17
44,marawi,0.0,PH,1538146253,96.0,8.0,124.29,64.81,1.95
45,,,,,,,,,
46,misawa,75.0,JP,1538144160,100.0,40.75,141.38,55.4,5.82
47,zeya,0.0,RU,1538146256,79.0,53.74,127.27,41.95,2.62
48,puerto ayora,75.0,EC,1538143200,78.0,-0.74,-90.35,73.4,10.29
49,ahipara,0.0,NZ,1538146259,100.0,-35.17,173.16,43.39,3.85
50,acaponeta,100.0,MX,1538146260,100.0,22.49,-105.36,76.15,8.43
51,otrado-kubanskoye,48.0,RU,1538146261,50.0,45.25,40.84,63.64,3.06
52,mar del plata,20.0,AR,1538146262,54.0,-46.43,-67.52,61.3,11.68
53,,,,,,,,,
54,mayumba,64.0,GA,1538146264,91.0,-3.44,10.65,77.68,10.22
55,chuy,92.0,UY,1538146266,95.0,-33.69,-53.46,62.92,21.41
56,mahajanga,0.0,MG,1538143200,61.0,-15.72,46.32,82.4,9.17
57,chapais,90.0,CA,1538143800,81.0,49.78,-74.86,50.0,13.87
58,vaini,100.0,IN,1538146269,99.0,15.34,74.49,69.22,0.49
59,new norfolk,40.0,AU,1538143200,88.0,-42.78,147.06,42.8,8.05
60,,,,,,,,,
61,san patricio,0.0,PY,1538146273,75.0,-26.98,-56.83,83.8,3.51
62,dalbandin,0.0,PK,1538146274,16.0,28.9,64.41,73.9,8.55
63,cody,90.0,US,1538142960,15.0,44.53,-109.06,35.06,9.17
64,dingle,80.0,PH,1538146276,96.0,11.0,122.67,77.05,7.2
65,,,,,,,,,
66,quatre cocos,40.0,MU,1538143200,69.0,-20.21,57.76,73.4,13.87
67,barrow,68.0,AR,1538146279,95.0,-38.31,-60.23,61.66,18.72
68,aberystwyth,0.0,GB,1538146281,79.0,52.41,-4.08,57.34,6.98
69,dahra,20.0,DZ,1538143200,38.0,36.25,0.85,87.8,9.17
70,pisco,90.0,PE,1538143200,30.0,-13.71,-76.2,71.6,4.7
71,springbok,0.0,ZA,1538146284,19.0,-29.67,17.88,74.71,6.98
72,mount gambier,80.0,AU,1538146061,61.0,-37.83,140.78,46.63,5.64
73,hilo,1.0,US,1538142960,84.0,19.71,-155.08,73.94,4.7
74,,,,,,,,,
75,hamilton,40.0,CA,1538143200,63.0,43.26,-79.87,64.4,11.41
76,tuktoyaktuk,90.0,CA,1538143200,92.0,69.44,-133.03,28.4,20.8
77,esperance,40.0,TT,1538143200,66.0,10.24,-61.45,89.6,13.87
78,rio de janeiro,75.0,BR,1538143200,78.0,-22.91,-43.21,82.4,6.93
79,bredasdorp,64.0,ZA,1538143200,34.0,-34.53,20.04,66.2,26.4
80,araouane,12.0,ML,1538146295,27.0,18.9,-3.53,101.44,4.63
81,atuona,92.0,PF,1538146296,100.0,-9.8,-139.03,77.95,11.45
82,saint-philippe,75.0,CA,1538145300,82.0,45.36,-73.48,61.7,11.41
83,,,,,,,,,
84,tete,20.0,MZ,1538143200,17.0,-16.16,33.59,100.4,14.99
85,kulhudhuffushi,76.0,MV,1538146300,100.0,6.62,73.07,80.29,19.28
86,alice springs,100.0,AU,1538145000,11.0,-23.7,133.88,73.4,18.34
87,qaanaaq,12.0,GL,1538146302,100.0,77.48,-69.36,14.59,5.19
88,san policarpo,64.0,PH,1538146304,92.0,12.18,125.51,82.09,8.66
89,norman wells,75.0,CA,1538143200,92.0,65.28,-126.83,30.2,14.99
90,iqaluit,75.0,CA,1538143200,64.0,63.75,-68.52,33.8,10.29
91,jamestown,0.0,AU,1538146086,84.0,-33.21,138.6,39.97,8.66
92,preobrazheniye,64.0,RU,1538146308,91.0,42.9,133.91,46.18,2.06
93,tilichiki,36.0,RU,1538146310,84.0,60.47,166.1,26.92,2.95
94,bollnas,24.0,SE,1538146311,54.0,61.35,16.39,45.64,10.22
95,aracuai,0.0,BR,1538146312,33.0,-16.85,-42.07,92.53,5.97
96,kruisfontein,0.0,ZA,1538146313,72.0,-34.0,24.73,63.73,24.99
97,komsomolskiy,36.0,RU,1538146314,88.0,67.55,63.78,38.44,8.43
98,,,,,,,,,
99,cabedelo,20.0,BR,1538143200,43.0,-6.97,-34.84,87.8,14.99
100,dongsheng,0.0,CN,1538146318,72.0,29.72,112.52,64.81,5.86
101,khatanga,92.0,RU,1538146319,90.0,71.98,102.47,41.41,16.82
102,chalchihuites,80.0,MX,1538146320,96.0,23.48,-103.88,56.44,3.96
103,georgetown,75.0,GY,1538143200,66.0,6.8,-58.16,87.8,9.17
104,skibbereen,40.0,IE,1538145000,50.0,51.55,-9.27,57.2,9.17
105,nikolskoye,40.0,RU,1538143200,45.0,59.7,30.79,48.2,20.13
106,abu dhabi,0.0,AE,1538143200,56.0,24.47,54.37,95.0,12.75
107,bethel,90.0,US,1538142780,96.0,60.79,-161.76,53.06,16.11
108,bambous virieux,40.0,MU,1538143200,69.0,-20.34,57.76,73.4,13.87
109,nawa,8.0,IN,1538146330,41.0,27.02,75.0,79.21,3.96
110,khandbari,44.0,NP,1538146331,64.0,27.38,87.21,44.2,1.16
111,aden,0.0,YE,1538146332,98.0,12.79,45.03,83.35,3.62
112,carnarvon,0.0,ZA,1538146333,7.0,-30.97,22.13,67.78,13.35
113,souillac,0.0,FR,1538145000,28.0,45.6,-0.6,84.2,9.17
114,comodoro rivadavia,40.0,AR,1538143200,58.0,-45.87,-67.48,59.0,4.7
115,hondo,90.0,US,1538144100,91.0,29.35,-99.14,71.96,4.52
116,petropavlovsk-kamchatskiy,8.0,RU,1538143200,86.0,53.05,158.65,39.2,11.18
117,,,,,,,,,
118,tiksi,48.0,RU,1538146340,96.0,71.64,128.87,24.85,5.53
119,shangzhi,48.0,CN,1538146341,86.0,45.21,127.96,46.9,2.51
120,laguna,20.0,MX,1538142300,94.0,27.52,-110.01,75.2,3.36
121,mvangue,92.0,CM,1538146343,82.0,2.97,11.5,76.15,2.95
122,katangli,0.0,RU,1538146344,89.0,51.71,143.23,50.32,14.25
123,hanover,40.0,DE,1538144400,54.0,52.37,9.74,60.8,11.41
124,senahu,48.0,GT,1538146347,86.0,15.42,-89.82,74.44,2.62
125,severo-kurilsk,80.0,RU,1538146348,100.0,50.68,156.12,44.92,8.43
126,istanbul,40.0,TR,1538144400,64.0,41.01,28.95,71.6,11.41
127,puerto escondido,90.0,MX,1538142300,69.0,15.86,-97.07,77.0,6.93
128,haines junction,76.0,CA,1538146351,96.0,60.75,-137.51,27.19,1.95
129,magistralnyy,0.0,RU,1538146353,94.0,56.17,107.45,39.07,4.63
130,saskylakh,80.0,RU,1538146354,96.0,71.97,114.09,33.49,5.41
131,bubaque,75.0,GW,1538143200,74.0,11.28,-15.83,84.2,11.41
132,,,,,,,,,
133,troy,90.0,US,1538143980,89.0,42.73,-73.69,53.96,9.17
134,naranjal,0.0,PY,1538143200,65.0,-25.97,-55.19,78.8,6.93
135,,,,,,,,,
136,shaunavon,8.0,CA,1538146361,76.0,49.65,-108.41,33.49,4.18
137,palana,68.0,RU,1538146362,97.0,59.08,159.95,42.76,3.96
138,guerrero negro,24.0,MX,1538146363,92.0,27.97,-114.04,67.96,3.4
139,emerald,0.0,AU,1538146364,54.0,-23.53,148.16,68.32,11.68
140,carauari,92.0,BR,1538146365,95.0,-4.88,-66.9,74.62,6.2
141,meulaboh,64.0,ID,1538146366,100.0,4.14,96.13,79.84,5.3
142,aksu,0.0,KZ,1538143200,59.0,52.04,76.93,60.8,11.18
143,port macquarie,8.0,AU,1538143200,82.0,-31.43,152.91,60.8,4.7
144,hanzhong,0.0,CN,1538146370,86.0,33.08,107.03,45.28,1.83
145,sitka,32.0,US,1538146371,86.0,37.17,-99.65,62.56,7.09
146,ojinaga,0.0,US,1538146372,60.0,29.56,-104.41,69.94,1.72
147,aripuana,56.0,BR,1538146374,80.0,-9.17,-60.63,85.69,2.95
148,svetlogorsk,75.0,RU,1538143200,70.0,53.14,59.15,44.6,6.71
149,nola,76.0,CF,1538146376,95.0,3.52,16.05,71.74,2.73
150,arraial do cabo,75.0,BR,1538143200,74.0,-22.97,-42.02,80.6,9.17
151,warrnambool,64.0,AU,1538146378,95.0,-38.38,142.48,50.14,16.04
152,bathsheba,40.0,BB,1538143200,88.0,13.22,-59.52,80.6,18.34
153,,,,,,,,,
154,sibolga,64.0,ID,1538146381,100.0,1.74,98.78,70.39,1.5
155,tongchuan,0.0,CN,1538143200,87.0,34.9,108.95,55.4,4.41
156,kapaa,90.0,US,1538145540,96.0,22.08,-159.32,75.92,9.17
157,ostrovnoy,92.0,RU,1538146385,93.0,68.05,39.51,40.69,23.09
158,katsuura,88.0,JP,1538146386,93.0,33.93,134.5,66.34,5.08
159,yanam,0.0,IN,1538146387,74.0,16.73,82.22,82.9,6.08
160,hithadhoo,92.0,MV,1538146388,100.0,-0.6,73.08,82.18,20.85
161,nizwa,8.0,OM,1538146390,20.0,22.93,57.53,86.05,4.74
162,progreso,90.0,UY,1538143200,87.0,-34.68,-56.22,60.8,13.47
163,eureka,90.0,US,1538145300,100.0,40.8,-124.16,50.0,3.36
164,abancay,0.0,PE,1538143200,328.0,-13.64,-72.88,37.4,1.72
165,shakiso,64.0,ET,1538146394,98.0,5.77,38.9,61.03,2.17
166,lagoa,20.0,PT,1538145000,61.0,37.14,-8.45,78.8,10.29
167,tuatapere,36.0,NZ,1538146397,88.0,-46.13,167.69,51.58,23.53
168,thompson,90.0,CA,1538143200,73.0,55.74,-97.86,26.6,6.93
169,ponta do sol,64.0,BR,1538146400,51.0,-20.63,-46.0,83.71,6.31
170,canning,90.0,AR,1538143200,100.0,-34.86,-58.5,62.6,13.87
171,union de san antonio,75.0,MX,1538142180,82.0,21.1,-101.97,60.8,6.93
172,tabalosos,40.0,PE,1538143200,290.0,-6.39,-76.63,62.6,2.24
173,,,,,,,,,
174,longyearbyen,40.0,NO,1538142600,58.0,78.22,15.63,26.6,19.46
175,akdepe,0.0,TM,1538143200,46.0,42.05,59.39,71.6,6.93
176,kailua,90.0,US,1538143020,100.0,21.39,-157.74,78.98,4.7
177,victoria,75.0,BN,1538145000,88.0,5.28,115.24,78.8,2.95
178,lata,20.0,IN,1538146410,100.0,30.78,78.62,53.29,1.72
179,french harbor,40.0,HN,1538146800,74.0,16.35,-86.43,86.0,18.34
180,kabin buri,44.0,TH,1538146412,91.0,13.95,101.72,78.22,1.05
181,tateyama,8.0,JP,1538146413,97.0,36.66,137.31,46.45,2.17
182,ouro preto do oeste,32.0,BR,1538146415,75.0,-10.75,-62.22,87.94,2.95
183,bam,0.0,IR,1538146416,22.0,29.11,58.36,71.83,7.87
184,kodiak,1.0,US,1538142780,74.0,39.95,-94.76,57.02,13.87
185,,,,,,,,,
186,del rio,90.0,US,1538142960,100.0,29.36,-100.9,66.92,8.05
187,provideniya,80.0,RU,1538146420,91.0,64.42,-173.23,46.81,31.59
188,pyra,68.0,BR,1538146422,66.0,-1.82,-46.97,89.92,12.12
189,,,,,,,,,
190,cayenne,75.0,GF,1538143200,59.0,4.94,-52.33,89.6,6.93
191,geraldton,75.0,CA,1538143200,93.0,49.72,-86.95,37.4,4.7
192,,,,,,,,,
193,gorgan,40.0,IR,1538143200,54.0,36.84,54.43,82.4,4.7
194,antofagasta,20.0,CL,1538143200,59.0,-23.65,-70.4,60.8,8.05
195,husavik,68.0,CA,1538146429,100.0,50.56,-96.99,34.57,17.49
196,saint george,75.0,GR,1538144400,59.0,39.45,22.34,62.6,3.36
197,piacabucu,48.0,BR,1538146341,56.0,-10.41,-36.43,85.24,12.8
198,bafoulabe,48.0,ML,1538146433,75.0,13.81,-10.83,90.1,6.42
199,,,,,,,,,
200,,,,,,,,,
201,,,,,,,,,
202,poum,75.0,MK,1538145000,24.0,41.28,20.71,59.0,10.29
203,alofi,75.0,NU,1538143200,83.0,-19.06,-169.92,71.6,8.05
204,baykit,0.0,RU,1538146439,89.0,61.68,96.39,36.82,4.18
205,tautira,0.0,PF,1538145000,78.0,-17.73,-149.15,71.6,3.36
206,talnakh,36.0,RU,1538146442,84.0,69.49,88.39,48.07,8.99
207,muriwai beach,44.0,NZ,1538145000,87.0,-36.82,174.45,46.4,3.36
208,virginia beach,40.0,US,1538144700,72.0,36.85,-75.98,82.94,4.7
209,rodez,0.0,FR,1538145000,39.0,44.35,2.57,78.8,13.87
210,,,,,,,,,
211,halifax,90.0,CA,1538145420,100.0,44.65,-63.58,60.8,11.41
212,luderitz,0.0,NA,1538146448,68.0,-26.65,15.16,65.08,25.43
213,vila velha,40.0,BR,1538143200,48.0,-3.71,-38.6,87.8,23.04
214,avera,90.0,US,1538145300,79.0,33.19,-82.53,78.8,6.93
215,harper,1.0,US,1538144100,89.0,30.3,-99.24,66.02,4.85
216,sarkand,92.0,KZ,1538146453,39.0,45.41,79.91,64.09,9.66
217,santiago,75.0,CL,1538143200,62.0,-33.44,-70.65,57.2,1.39
218,san quintin,80.0,PH,1538146456,89.0,17.54,120.52,74.17,3.18
219,,,,,,,,,
220,sri aman,44.0,MY,1538143200,94.0,1.24,111.46,77.0,2.17
221,,,,,,,,,
222,holme,0.0,GB,1538144400,44.0,53.7,-2.31,59.0,6.93
223,deputatskiy,80.0,RU,1538146378,92.0,69.3,139.9,28.63,11.9
224,,,,,,,,,
225,mgandu,0.0,TZ,1538146464,29.0,-5.96,34.11,78.67,17.16
226,avarua,75.0,CK,1538143200,68.0,-21.21,-159.78,71.6,5.82
227,srednekolymsk,44.0,RU,1538146466,85.0,67.46,153.71,22.87,3.4
228,takoradi,88.0,GH,1538146467,94.0,4.89,-1.75,78.04,8.55
229,kambove,56.0,CD,1538146468,29.0,-10.88,26.6,85.24,5.64
230,rio grande,90.0,BR,1538143200,88.0,-32.03,-52.1,68.0,19.46
231,hualmay,12.0,PE,1538146471,70.0,-11.1,-77.61,68.32,3.96
232,goundam,0.0,ML,1538146472,43.0,16.42,-3.66,97.57,5.41
233,taitung,32.0,TW,1538146473,100.0,22.76,121.15,76.24,8.66
234,verkhnyaya inta,36.0,RU,1538146474,67.0,65.99,60.32,38.98,4.97
235,baturaja,80.0,ID,1538146475,40.0,-4.12,104.17,89.29,9.44
236,pitimbu,20.0,BR,1538143200,43.0,-7.47,-34.81,87.8,14.99
237,,,,,,,,,
238,,,,,,,,,
239,rocha,92.0,UY,1538146480,91.0,-34.48,-54.34,62.47,15.59
240,lavrentiya,32.0,RU,1538146481,89.0,65.58,-170.99,44.74,24.76
241,bath,20.0,GB,1538144400,51.0,51.38,-2.36,60.8,14.99
242,vao,76.0,EE,1538146483,75.0,59.1,26.19,46.09,8.77
243,leningradskiy,24.0,RU,1538146484,98.0,69.38,178.42,39.61,21.3
244,borzya,0.0,RU,1538146485,91.0,50.39,116.53,41.5,14.58
245,los llanos de aridane,20.0,ES,1538145000,69.0,28.66,-17.92,78.8,13.87
246,siderno,90.0,IT,1538142900,46.0,38.28,16.3,71.6,8.05
247,greytown,44.0,ZA,1538146489,27.0,-29.06,30.59,84.52,2.95
248,sao filipe,0.0,CV,1538146258,81.0,14.9,-24.5,82.81,17.05
249,somerville,90.0,US,1538144100,89.0,40.57,-74.61,62.96,9.17
250,nalut,0.0,LY,1538146492,44.0,31.86,10.98,73.27,9.44
251,santa maria,75.0,BR,1538143200,83.0,-29.69,-53.81,73.4,10.29
252,ikwiriri,0.0,TZ,1538146496,60.0,-7.96,38.99,79.48,6.42
253,barreirinhas,0.0,BR,1538146497,52.0,-2.75,-42.83,93.79,17.27
254,rawson,0.0,AR,1538146498,65.0,-43.3,-65.11,60.94,18.84
255,narsaq,75.0,GL,1538142600,70.0,60.91,-46.05,42.8,18.34
256,mount isa,0.0,AU,1538145000,32.0,-20.73,139.49,66.2,3.36
257,gonnoi,92.0,GR,1538146502,59.0,39.87,22.47,61.66,6.98
258,saldanha,0.0,PT,1538146504,31.0,41.42,-6.55,84.61,4.74
259,fortuna,20.0,ES,1538145000,61.0,38.18,-1.13,82.4,5.82
260,nadym,20.0,RU,1538146507,74.0,65.53,72.51,56.71,17.72
261,louth,40.0,GB,1538144400,54.0,53.37,0.0,60.8,11.41
262,walvis bay,0.0,NA,1538143200,41.0,-22.95,14.51,75.2,10.29
263,siusega,20.0,WS,1538143200,83.0,-13.84,-171.81,71.6,4.7
264,,,,,,,,,
265,porto novo,75.0,BR,1538143200,78.0,-23.68,-45.44,71.6,3.36
266,dalnerechensk,20.0,RU,1538146253,82.0,45.93,133.72,42.31,2.51
267,najran,0.0,SA,1538143200,13.0,17.54,44.22,91.4,11.41
268,mabaruma,44.0,GY,1538146516,77.0,8.2,-59.78,87.04,7.99
269,vallenar,48.0,CL,1538146517,68.0,-28.58,-70.76,64.54,2.39
270,kargasok,12.0,RU,1538146518,60.0,59.06,80.87,60.67,7.99
271,zalantun,76.0,CN,1538146519,97.0,48.0,122.72,50.5,3.85
272,havre-saint-pierre,75.0,CA,1538143200,81.0,50.23,-63.6,46.4,10.29
273,havoysund,90.0,NO,1538144400,100.0,71.0,24.66,33.8,19.46
274,erenhot,0.0,CN,1538146522,71.0,43.65,111.97,39.34,9.78
275,tual,80.0,ID,1538146524,94.0,-5.67,132.75,82.45,11.79
276,mao,40.0,DO,1538143200,83.0,19.55,-71.08,86.0,6.93
277,padang,32.0,ID,1538146526,100.0,-0.92,100.36,83.17,5.64
278,zyryanka,88.0,RU,1538146527,81.0,65.73,150.89,30.7,5.41
279,sur,0.0,OM,1538146528,89.0,22.57,59.53,85.24,1.39
280,ghanzi,80.0,BW,1538146530,20.0,-21.7,21.65,91.27,3.85
281,lompoc,90.0,US,1538145660,100.0,34.64,-120.46,62.06,4.07
282,,,,,,,,,
283,vanimo,8.0,PG,1538146533,100.0,-2.67,141.3,84.25,6.42
284,aizawl,44.0,IN,1538146534,89.0,23.74,92.72,75.34,1.83
285,sao joao da barra,75.0,BR,1538143200,62.0,-21.64,-41.05,84.2,11.41
286,sainte-marie,75.0,CA,1538143200,82.0,46.45,-71.03,55.4,10.29
287,ribeira grande,20.0,PT,1538145000,83.0,38.52,-28.7,78.8,9.17
288,copiapo,90.0,CL,1538143200,87.0,-27.37,-70.33,55.4,5.82
289,turayf,0.0,SA,1538143200,18.0,31.68,38.65,91.4,9.17
290,saint anthony,1.0,US,1538142960,12.0,43.97,-111.68,39.02,6.93
291,clyde river,75.0,CA,1538143200,85.0,70.47,-68.59,23.0,3.36
292,mosetse,44.0,BW,1538146544,12.0,-20.64,26.64,97.3,5.64
293,esmeraldas,0.0,BR,1538143200,42.0,-19.76,-44.31,84.2,3.36
294,mahebourg,40.0,MU,1538143200,69.0,-20.41,57.7,73.4,13.87
295,anjozorobe,20.0,MG,1538145000,52.0,-18.4,47.88,68.0,12.75
296,torbay,90.0,CA,1538144760,87.0,47.66,-52.73,53.6,9.17
297,liverpool,40.0,GB,1538144400,54.0,53.41,-2.98,59.0,9.17
298,dunedin,0.0,NZ,1538146513,75.0,-45.87,170.5,33.76,6.64
299,,,,,,,,,
300,la ronge,90.0,CA,1538143200,68.0,55.1,-105.3,28.4,5.82
301,,,,,,,,,
302,port shepstone,0.0,ZA,1538146555,76.0,-30.74,30.45,71.65,27.11
303,daru,48.0,SL,1538146556,93.0,7.99,-10.85,80.65,5.97
304,aitape,8.0,PG,1538146557,95.0,-3.15,142.36,81.19,4.85
305,pochutla,90.0,MX,1538143020,88.0,15.74,-96.47,77.0,17.22
306,luanda,20.0,AO,1538143200,69.0,-8.83,13.24,78.8,5.82
307,richards bay,32.0,ZA,1538146561,81.0,-28.77,32.06,74.35,13.8
308,vysokovsk,40.0,RU,1538143200,93.0,56.32,36.55,55.4,20.13
309,djambala,8.0,CG,1538146563,71.0,-2.55,14.76,85.69,5.41
310,boende,92.0,CD,1538146564,99.0,-0.28,20.88,73.36,2.84
311,tolaga bay,8.0,NZ,1538146565,86.0,-38.37,178.3,41.95,5.19
312,byron bay,90.0,AU,1538145000,82.0,-28.65,153.62,68.0,8.05
313,duki,0.0,PK,1538146568,44.0,30.15,68.58,67.78,0.94
314,kavieng,20.0,PG,1538146569,100.0,-2.57,150.8,83.62,8.77
315,fernie,75.0,CA,1538143200,92.0,49.5,-115.06,32.0,4.7
316,,,,,,,,,
317,ballina,75.0,IE,1538145000,66.0,54.11,-9.15,51.8,2.24
318,jevnaker,0.0,NO,1538146573,59.0,60.24,10.38,48.43,6.76
319,devils lake,90.0,US,1538144100,17.0,48.11,-98.87,32.0,9.17
320,,,,,,,,,
321,leshukonskoye,88.0,RU,1538146577,95.0,64.9,45.76,43.12,2.62
322,pontianak,24.0,ID,1538146578,91.0,-0.02,109.34,79.57,3.4
323,jurm,56.0,AF,1538146579,88.0,36.86,70.83,38.35,0.6
324,sakaraha,12.0,MG,1538146580,22.0,-22.91,44.53,85.96,4.97
325,vila,0.0,IT,1538144400,29.0,45.18,8.4,78.8,2.24
326,maniitsoq,68.0,GL,1538146583,100.0,65.42,-52.9,36.28,17.16
327,mehamn,40.0,NO,1538142600,52.0,71.03,27.85,41.0,11.41
328,santona,75.0,ES,1538145000,83.0,43.44,-3.46,77.0,6.93
329,punta cardon,20.0,VE,1538146586,78.0,11.61,-70.22,86.05,6.64
330,jonkoping,0.0,SE,1538144400,43.0,57.78,14.16,50.0,11.41
331,divnogorsk,40.0,RU,1538143200,87.0,55.96,92.38,48.2,8.95
332,saint-joseph,0.0,FR,1538145000,57.0,43.56,6.97,86.0,12.75
333,,,,,,,,,
334,ilulissat,75.0,GL,1538142600,69.0,69.22,-51.1,35.6,14.99
335,grindavik,75.0,IS,1538143200,87.0,63.84,-22.43,48.2,32.21
336,,,,,,,,,
337,nome,90.0,US,1538144100,87.0,30.04,-94.42,73.94,6.93
338,sorong,92.0,ID,1538146597,100.0,-0.86,131.25,80.29,3.96
339,east london,0.0,ZA,1538144340,48.0,-33.02,27.91,66.2,29.97
340,urucara,8.0,BR,1538146599,48.0,-2.54,-57.76,94.24,4.52
341,pandan,64.0,PH,1538146600,100.0,11.72,122.09,80.47,14.92
342,,,,,,,,,
343,bonavista,64.0,CA,1538146602,90.0,48.65,-53.11,52.66,17.83
344,tarakan,24.0,ID,1538146504,100.0,3.3,117.63,79.12,2.17
345,antalaha,88.0,MG,1538146605,88.0,-14.9,50.28,72.55,11.56
346,dombasle-sur-meurthe,0.0,FR,1538145000,32.0,48.62,6.35,69.8,8.05
347,yarkovo,0.0,RU,1538143200,67.0,54.81,82.6,59.0,6.71
348,ahuimanu,90.0,US,1538143020,100.0,21.44,-157.84,78.98,4.7
349,chumikan,76.0,RU,1538146609,54.0,54.72,135.31,58.51,10.78
350,abapo,20.0,BO,1538146610,85.0,-18.83,-63.47,77.14,3.06
351,yulara,92.0,AU,1538143200,28.0,-25.24,130.99,71.6,10.29
352,bowen,75.0,AU,1538143200,88.0,-20.01,148.25,62.6,5.82
353,makakilo city,20.0,US,1538143020,93.0,21.35,-158.09,78.98,7.76
354,tasiilaq,40.0,GL,1538142600,100.0,65.61,-37.64,35.6,1.12
355,ouegoa,92.0,NC,1538146616,75.0,-20.34,164.44,70.75,14.14
356,,,,,,,,,
357,,,,,,,,,
358,buala,92.0,SB,1538146619,98.0,-8.15,159.59,79.57,7.54
359,lebu,20.0,ET,1538143200,28.0,8.96,38.73,71.6,16.11
360,,,,,,,,,
361,yeppoon,0.0,AU,1538145000,88.0,-23.13,150.74,64.4,4.7
362,kaitangata,0.0,NZ,1538146624,67.0,-46.28,169.85,34.66,4.41
363,inyonga,8.0,TZ,1538146625,32.0,-6.72,32.06,83.53,5.86
364,samarinda,8.0,ID,1538146626,84.0,-0.5,117.14,78.49,3.06
365,pevek,68.0,RU,1538146627,90.0,69.7,170.27,43.12,18.84
366,nemuro,32.0,JP,1538146629,100.0,43.32,145.57,56.17,7.76
367,kahului,75.0,US,1538142960,90.0,20.89,-156.47,78.98,5.82
368,nicoya,0.0,CR,1538143200,78.0,10.15,-85.45,80.6,2.24
369,,,,,,,,,
370,nanortalik,24.0,GL,1538146633,90.0,60.14,-45.24,39.52,35.84
371,sitrah,0.0,BH,1538145000,32.0,26.15,50.62,100.4,4.7
372,dikson,48.0,RU,1538146635,93.0,73.51,80.55,39.88,4.97
373,cockburn town,8.0,TC,1538146637,96.0,21.46,-71.14,83.89,13.58
374,hakkari,75.0,FI,1538144400,49.0,61.34,23.75,46.4,8.05
375,kenai,90.0,US,1538145300,100.0,60.55,-151.26,48.02,6.87
376,,,,,,,,,
377,monrovia,56.0,LR,1538146641,98.0,6.33,-10.8,81.01,5.97
378,,,,,,,,,
379,dubai,0.0,AE,1538143200,47.0,25.27,55.3,95.0,8.05
380,khorramshahr,0.0,IR,1538143200,11.0,30.43,48.18,105.8,11.41
381,,,,,,,,,
382,pacific grove,90.0,US,1538145300,100.0,36.62,-121.92,55.4,3.06
383,kantang,32.0,TH,1538146647,100.0,7.42,99.52,77.59,3.62
384,vilhena,75.0,BR,1538143200,78.0,-12.74,-60.15,80.6,6.93
385,airai,0.0,TL,1538146650,82.0,-8.93,125.41,68.05,1.61
386,biak,76.0,ID,1538146651,97.0,-0.91,122.88,76.87,4.41
387,henties bay,0.0,NA,1538146652,81.0,-22.12,14.28,63.55,10.0
388,susanville,1.0,US,1538145300,45.0,40.42,-120.65,44.6,2.17
389,,,,,,,,,
390,fairbanks,1.0,US,1538143080,17.0,64.84,-147.72,33.26,10.29
391,pangkalanbuun,8.0,ID,1538146525,66.0,-2.68,111.62,74.62,6.31
392,krasnovishersk,92.0,RU,1538146658,95.0,60.4,57.08,41.95,8.99
393,egvekinot,68.0,RU,1538146659,94.0,66.32,-179.17,32.32,3.51
394,akola,0.0,IN,1538146660,77.0,20.71,77.0,78.22,2.62
395,haileybury,90.0,CA,1538145720,87.0,47.44,-79.64,51.8,16.11
396,otterup,20.0,DK,1538142600,50.0,55.52,10.4,55.4,18.34
397,haicheng,92.0,CN,1538146663,97.0,40.85,122.74,56.08,5.3
398,jishou,20.0,CN,1538146664,91.0,28.26,109.7,60.85,2.73
399,cap malheureux,40.0,MU,1538143200,69.0,-19.98,57.61,73.4,13.87
400,yerbogachen,0.0,RU,1538146667,87.0,61.28,108.01,36.73,2.73
401,faanui,64.0,PF,1538146668,100.0,-16.48,-151.75,76.96,7.09
402,ankpa,76.0,NG,1538146669,98.0,7.37,7.63,76.96,3.85
403,nikel,40.0,NO,1538144400,59.0,69.41,30.21,37.4,13.87
404,,,,,,,,,
405,alexandria,90.0,US,1538145480,84.0,31.31,-92.44,70.16,4.7
406,kirakira,64.0,SB,1538146673,98.0,-10.46,161.92,82.72,13.69
407,isangel,100.0,VU,1538146675,100.0,-19.55,169.27,67.51,20.4
408,honiara,20.0,SB,1538143200,94.0,-9.43,159.96,75.2,2.24
409,corinto,0.0,BR,1538146677,46.0,-18.36,-44.46,92.08,5.19
410,sistranda,75.0,NO,1538144400,93.0,63.73,8.83,41.0,6.93
411,vardo,75.0,US,1538146020,72.0,39.62,-77.74,66.2,6.93
412,asyut,0.0,EG,1538143200,34.0,27.18,31.19,96.8,13.87
413,hunchun,24.0,CN,1538146681,93.0,42.86,130.36,44.02,1.83
414,,,,,,,,,
415,haselunne,36.0,DE,1538144400,36.0,52.67,7.48,60.8,11.41
416,mocuba,24.0,MZ,1538146685,28.0,-16.84,36.99,91.63,6.98
417,port lincoln,44.0,AU,1538146686,100.0,-34.72,135.86,48.61,7.87
418,beira,40.0,ES,1538145000,88.0,43.2,-8.36,77.0,6.93
419,jerusalem,0.0,PS,1538144400,62.0,31.78,35.23,84.2,11.41
420,klyuchevsk,75.0,RU,1538143200,87.0,57.12,60.94,42.8,11.18
421,viedma,92.0,AR,1538146691,100.0,-40.81,-62.99,55.18,12.57
422,rancho palos verdes,90.0,US,1538144100,93.0,33.75,-118.37,66.92,3.74
423,shingu,80.0,JP,1538146693,100.0,33.72,135.99,75.07,12.24
424,nanyamba,75.0,MZ,1538143200,65.0,-10.69,39.81,78.8,13.87
425,tinaquillo,44.0,VE,1538146695,78.0,9.92,-68.31,79.93,3.4
426,,,,,,,,,
427,,,,,,,,,
428,souris,90.0,CA,1538145600,100.0,46.36,-62.25,50.0,8.05
429,klaksvik,92.0,FO,1538144400,87.0,62.23,-6.59,46.4,18.34
430,,,,,,,,,
431,kavaratti,36.0,IN,1538146702,100.0,10.57,72.64,83.62,12.46
432,evensk,92.0,RU,1538146703,100.0,61.92,159.24,38.89,10.78
433,ibirataia,0.0,BR,1538146704,62.0,-14.07,-39.64,84.07,6.98
434,,,,,,,,,
435,union,1.0,US,1538144880,100.0,47.36,-123.1,59.0,2.17
436,shimoda,56.0,JP,1538146708,100.0,34.7,138.93,72.91,5.97
437,bukachacha,12.0,RU,1538146709,43.0,52.99,116.91,52.66,8.43
438,beringovskiy,92.0,RU,1538146710,100.0,63.05,179.32,45.37,20.18
439,gat,0.0,SN,1538146711,74.0,14.69,-16.54,89.47,12.8
440,aykhal,92.0,RU,1538146713,91.0,65.95,111.51,37.27,2.84
441,,,,,,,,,
442,sechura,8.0,PE,1538146715,91.0,-5.56,-80.82,68.95,7.43
443,ratnagiri,76.0,IN,1538146716,100.0,16.98,73.3,80.38,2.17
444,vila franca do campo,40.0,PT,1538145000,88.0,37.72,-25.43,75.2,10.29
445,charters towers,0.0,AU,1538146718,78.0,-20.07,146.27,61.39,4.63
446,almenara,0.0,BR,1538146719,34.0,-16.17,-40.69,91.63,3.96
447,belmonte,24.0,PT,1538146635,59.0,40.36,-7.35,76.69,3.96
448,greenville,75.0,US,1538146440,87.0,34.85,-82.4,75.02,6.93
449,balozi,40.0,LV,1538144400,81.0,56.88,24.12,50.0,6.93
450,coihaique,90.0,CL,1538143200,81.0,-45.58,-72.07,50.0,4.7
451,yuci,0.0,CN,1538143200,71.0,37.68,112.73,50.0,4.47
452,wagga wagga,90.0,AU,1538143200,58.0,-35.12,147.37,53.6,12.75
453,general pico,92.0,AR,1538146466,99.0,-35.66,-63.75,66.52,16.6
454,agarak,20.0,AM,1538146729,69.0,38.87,46.2,57.34,1.83
455,sorumsand,0.0,NO,1538146730,58.0,59.99,11.24,47.44,7.31
456,singaraja,0.0,ID,1538146731,100.0,-8.11,115.08,70.21,2.06
457,hope,1.0,CA,1538143200,66.0,49.38,-121.43,55.4,4.7
458,kabompo,0.0,ZM,1538146734,39.0,-13.6,24.21,88.57,5.41
459,tadine,76.0,NC,1538146735,98.0,-21.55,167.88,70.57,23.53
460,,,,,,,,,
461,altamira,75.0,BR,1538143200,70.0,-3.2,-52.21,86.0,5.82
462,saint-pierre,20.0,FR,1538145000,59.0,48.95,4.24,69.8,20.8
463,khani,40.0,GE,1538143200,68.0,41.96,42.96,71.6,12.75
464,saint andrews,0.0,NZ,1538146741,100.0,-44.53,171.19,33.31,4.52
465,west bay,20.0,GB,1538144400,48.0,50.71,-2.76,62.6,12.75
466,pacifica,90.0,US,1538145300,87.0,37.61,-122.49,59.0,4.74
467,,,,,,,,,
468,salalah,20.0,OM,1538142600,78.0,17.01,54.1,78.8,9.17
469,plavsk,80.0,RU,1538146746,71.0,53.71,37.29,60.58,26.33
470,manbij,0.0,SY,1538144400,20.0,36.53,37.96,86.0,8.05
471,ginda,20.0,IN,1538146749,100.0,30.69,78.49,53.29,1.72
472,breytovo,92.0,RU,1538146750,100.0,58.3,37.86,42.67,21.85
473,kapurthala,75.0,IN,1538143200,74.0,31.38,75.38,82.4,2.95
474,xingyi,68.0,CN,1538146752,98.0,24.19,102.82,59.32,2.39
475,kodino,92.0,RU,1538146754,98.0,63.72,39.64,43.75,6.76
476,sume,0.0,RS,1538145000,22.0,43.62,20.22,69.8,8.05
477,manor,0.0,GB,1538144400,44.0,53.37,-1.43,60.8,5.82
478,hasaki,75.0,JP,1538143200,88.0,35.73,140.83,62.6,4.7
479,summerside,90.0,CA,1538145600,100.0,46.39,-63.79,50.0,8.05
480,mahibadhoo,92.0,MV,1538146759,100.0,3.78,72.97,80.47,20.51
481,eydhafushi,88.0,MV,1538146761,100.0,5.1,73.07,81.73,22.3
482,sabang,76.0,PH,1538146762,100.0,13.72,123.58,78.13,4.74
483,rupert,1.0,US,1538142780,70.0,42.62,-113.68,50.0,2.84
484,patitirion,75.0,GR,1538142600,77.0,39.15,23.87,64.4,11.41
485,alyangula,0.0,AU,1538146765,100.0,-13.85,136.42,75.7,7.99
486,,,,,,,,,
487,mbarara,64.0,UG,1538146768,71.0,-0.61,30.65,72.55,4.41
488,jiwani,0.0,PK,1538146769,76.0,25.05,61.74,82.99,12.24
489,saint-leu,0.0,RE,1538145000,64.0,-21.15,55.28,73.4,21.92
490,mathbaria,0.0,BD,1538146771,83.0,22.29,89.96,82.99,6.31
491,guacui,8.0,BR,1538146773,58.0,-20.78,-41.68,86.77,5.19
492,figeac,0.0,FR,1538145000,39.0,44.61,2.03,80.6,13.87
493,sylacauga,90.0,US,1538145300,98.0,33.17,-86.25,75.38,3.4
494,san jose,24.0,PH,1538146777,97.0,15.79,120.99,72.82,2.84
495,general roca,75.0,AR,1538143200,93.0,-39.03,-67.58,53.6,4.7
496,mackay,90.0,CA,1538143800,93.0,53.65,-115.58,32.0,3.85
497,chokurdakh,80.0,RU,1538146781,100.0,70.62,147.9,34.84,11.68
498,koulikoro,20.0,ML,1538145000,59.0,12.86,-7.56,89.6,9.17
499,the pas,90.0,CA,1538143200,54.0,53.82,-101.24,30.2,12.75
500,umm kaddadah,12.0,SD,1538146784,22.0,13.6,26.69,97.21,8.99
501,manavalakurichi,75.0,IN,1538145000,74.0,8.13,77.3,84.2,5.82
502,ponta delgada,40.0,PT,1538145000,88.0,37.73,-25.67,75.2,10.29
503,iquique,0.0,CL,1538143200,63.0,-20.22,-70.14,64.4,14.99
504,,,,,,,,,
505,maine-soroa,0.0,NE,1538146790,35.0,13.21,12.02,97.75,6.08
506,bagru,20.0,IN,1538143200,35.0,26.81,75.54,87.8,3.36
507,lasa,20.0,CY,1538145000,74.0,34.92,32.53,80.6,14.99
508,hami,0.0,CN,1538146793,47.0,42.84,93.51,48.07,4.41
509,marevo,0.0,BA,1538145000,21.0,43.57,18.7,71.6,3.36
510,lingao,56.0,CN,1538146618,100.0,19.91,109.69,77.05,3.96
511,buraydah,0.0,SA,1538143200,15.0,26.33,43.97,102.2,11.41
512,grand island,90.0,US,1538144100,74.0,40.92,-98.34,46.94,8.05
513,constitucion,90.0,MX,1538142000,100.0,23.99,-104.67,59.0,4.41
514,hobyo,20.0,SO,1538146800,80.0,5.35,48.53,80.29,14.47
515,riyadh,20.0,SA,1538143200,8.0,24.63,46.72,100.4,9.17
516,kingston,75.0,CA,1538143200,87.0,44.23,-76.48,62.96,16.11
517,port hardy,90.0,CA,1538144520,100.0,50.7,-127.42,50.0,3.36
518,dhidhdhoo,76.0,MV,1538146806,100.0,6.88,73.1,80.29,19.28
519,nhulunbuy,0.0,AU,1538145000,88.0,-12.18,136.78,69.8,13.69
520,mnogovershinnyy,8.0,RU,1538146809,63.0,53.94,139.92,51.31,4.74
521,farsund,8.0,NO,1538146812,100.0,58.09,6.8,49.69,16.26
522,,,,,,,,,
523,sargatskoye,92.0,RU,1538146815,90.0,55.6,73.49,48.61,15.59
524,samarai,76.0,PG,1538146817,100.0,-10.62,150.67,76.69,14.03
525,yakovlevo,75.0,RU,1538143200,63.0,50.85,36.44,60.8,13.42
526,,,,,,,,,
527,,,,,,,,,
528,luba,80.0,PH,1538146822,89.0,17.32,120.7,74.17,3.18
529,krasnyy yar,0.0,RU,1538146886,59.0,50.7,44.73,55.36,12.24
530,silopi,0.0,IQ,1538146825,32.0,37.25,42.47,76.69,3.18
531,nishihara,90.0,JP,1538143200,81.0,35.74,139.53,68.0,5.82
532,,,,,,,,,
533,zaraza,24.0,VE,1538146829,72.0,9.35,-65.33,87.94,6.64
534,abomey,44.0,BJ,1538146831,89.0,7.18,1.99,83.44,4.41
535,waynesville,1.0,US,1538146380,77.0,37.83,-92.2,62.06,4.7
536,praia,0.0,BR,1538143200,42.0,-20.25,-43.81,84.2,3.36
537,,,,,,,,,
538,lazaro cardenas,20.0,MX,1538142240,87.0,28.39,-105.62,57.2,3.4
539,port hedland,0.0,AU,1538145000,82.0,-20.31,118.58,68.0,5.82
540,kunyang,0.0,CN,1538146838,93.0,27.66,120.56,73.81,17.72
541,arlit,0.0,NE,1538146839,13.0,18.74,7.39,104.14,6.98
542,,,,,,,,,
543,veraval,75.0,FR,1538145000,67.0,49.65,0.71,62.6,19.46
544,solnechnyy,56.0,RU,1538146843,90.0,50.72,136.64,43.75,2.28
545,goroka,0.0,PG,1538146844,92.0,-6.07,145.39,51.67,1.72
546,matamoros,1.0,US,1538142780,96.0,25.87,-97.51,78.08,4.74
547,saint-francois,0.0,FR,1538145000,29.0,46.42,3.91,78.8,6.93
548,,,,,,,,,
549,san joaquin,80.0,PH,1538146848,96.0,10.59,122.14,77.05,7.2
550,faya,20.0,SA,1538143200,14.0,18.39,42.45,82.4,16.11
551,winnemucca,1.0,US,1538146560,13.0,40.97,-117.74,46.04,2.39
552,sumbe,0.0,AO,1538146852,90.0,-11.2,13.84,74.62,7.2
553,,,,,,,,,
554,broome,40.0,GB,1538144400,62.0,52.47,1.45,60.8,8.05
555,trairi,0.0,BR,1538146855,100.0,-3.28,-39.27,79.21,22.86
556,sorland,40.0,NO,1538142600,60.0,67.67,12.69,42.8,2.24
557,madison,75.0,US,1538145300,69.0,43.07,-89.38,51.8,10.29
558,tarabuco,44.0,BO,1538146859,69.0,-19.18,-64.92,66.07,3.51
559,,,,,,,,,
560,kushiro,88.0,JP,1538146861,98.0,43.11,144.15,51.22,2.73
561,melfi,0.0,IT,1538142900,44.0,41.0,15.66,78.8,17.22
562,ugoofaaru,88.0,MV,1538146864,100.0,5.67,73.0,81.73,22.3
563,tessalit,12.0,ML,1538146928,19.0,20.2,1.01,101.35,5.08
564,kamaishi,64.0,JP,1538146867,95.0,39.28,141.86,58.96,1.72
565,waipawa,20.0,NZ,1538146869,90.0,-39.94,176.59,40.42,6.76
566,bosaso,0.0,SO,1538146932,100.0,11.28,49.18,82.72,6.42
567,,,,,,,,,
568,uray,44.0,RU,1538146872,89.0,60.13,64.8,43.93,7.76
569,formosa,0.0,AR,1538143200,58.0,-26.19,-58.17,82.4,5.82
570,albemarle,90.0,US,1538146800,89.0,35.35,-80.2,75.02,4.7
571,aguimes,20.0,ES,1538145000,61.0,27.91,-15.45,80.6,27.51
572,,,,,,,,,
573,tonantins,76.0,BR,1538146878,85.0,-2.86,-67.77,81.01,5.53
574,sayyan,0.0,YE,1538146879,13.0,15.17,44.32,71.74,7.31
575,micheweni,68.0,TZ,1538146881,97.0,-4.97,39.83,78.85,17.27
576,kununurra,0.0,AU,1538145000,69.0,-15.77,128.74,75.2,3.36
577,high prairie,76.0,CA,1538146609,91.0,55.43,-116.48,28.63,2.62
578,hagere hiywet,64.0,ET,1538146885,39.0,8.98,37.85,68.77,4.41
579,okhotsk,12.0,RU,1538146886,86.0,59.36,143.24,45.28,17.38
580,greymouth,92.0,NZ,1538146887,100.0,-42.45,171.21,48.52,5.64
581,maryville,90.0,US,1538146380,69.0,40.35,-94.87,57.92,13.87
582,,,,,,,,,
583,kisanga,0.0,CD,1538146890,28.0,-11.72,27.4,87.22,5.86
584,thinadhoo,92.0,MV,1538146891,100.0,0.53,72.93,79.66,17.6
585,fort nelson,75.0,CA,1538143200,92.0,58.81,-122.69,26.6,3.36
586,aklavik,90.0,CA,1538145120,86.0,68.22,-135.01,33.8,9.17
587,omboue,0.0,GA,1538146895,100.0,-1.57,9.26,78.04,10.45
588,paka,0.0,HR,1538145000,26.0,45.29,18.06,71.6,8.05
589,taltal,32.0,CL,1538146897,80.0,-25.41,-70.49,63.19,2.17
590,salinopolis,0.0,BR,1538146831,86.0,-0.61,-47.36,84.7,19.28
591,puerto quijarro,20.0,BO,1538143200,74.0,-19.0,-57.72,82.4,5.82
592,prince rupert,90.0,CA,1538143200,100.0,54.32,-130.32,50.0,3.36
593,namibe,0.0,AO,1538146902,100.0,-15.19,12.15,68.5,7.87
594,,,,,,,,,
595,yerofey pavlovich,0.0,RU,1538146904,80.0,53.97,121.97,41.05,2.73
596,cherskiy,24.0,RU,1538146905,100.0,68.75,161.3,28.9,2.28
597,alakurtti,92.0,RU,1538146906,75.0,66.96,30.34,34.21,7.2
598,black river,20.0,JM,1538143200,66.0,18.03,-77.85,87.8,9.17
599,vietri sul mare,0.0,IT,1538144400,27.0,40.67,14.73,78.8,9.17
600,japura,36.0,ID,1538146909,88.0,-0.42,102.29,76.42,1.95
601,dudinka,80.0,RU,1538146771,95.0,69.41,86.18,49.51,7.87
602,zemio,0.0,CF,1538146912,80.0,5.02,25.13,80.29,4.41
603,coahuayana,0.0,MX,1538146913,78.0,18.62,-100.35,72.01,3.06
604,taoudenni,0.0,ML,1538146914,16.0,22.68,-3.98,101.8,6.76
605,pyapon,64.0,MM,1538146915,84.0,16.29,95.68,83.89,5.19
606,batagay-alyta,12.0,RU,1538146916,65.0,67.8,130.41,6.94,3.18
607,,,,,,,,,
608,iwanai,80.0,JP,1538146918,100.0,42.97,140.51,57.97,3.62
609,dabakala,92.0,CI,1538146919,100.0,8.36,-4.43,72.91,5.19
610,severo-yeniseyskiy,36.0,RU,1538146921,95.0,60.37,93.04,45.01,4.97
611,christchurch,90.0,NZ,1538145000,100.0,-43.53,172.64,33.8,1.12
612,lagunas,8.0,PE,1538146923,71.0,-5.23,-75.68,88.75,3.06
613,adrar,75.0,DZ,1538143200,45.0,27.87,-0.29,82.4,17.22
614,tamiahua,80.0,MX,1538146925,100.0,21.28,-97.45,77.05,8.77
615,axim,44.0,GH,1538146926,96.0,4.87,-2.24,78.94,12.24
616,kysyl-syr,32.0,RU,1538146927,84.0,63.9,122.77,39.16,7.31
